__time,/CtrlOut/AngComp/x,/CtrlOut/AngComp/y,/CtrlOut/AngComp/z,/CtrlOut/AngRef/x,/CtrlOut/AngRef/y,/CtrlOut/AngRef/z,/CtrlOut/AngVelRef/x,/CtrlOut/AngVelRef/y,/CtrlOut/AngVelRef/z,/CtrlOut/KaiErr/x,/CtrlOut/KaiErr/y,/CtrlOut/KaiErr/z,/CtrlOut/Kbar,/CtrlOut/Sigma/x,/CtrlOut/Sigma/y,/CtrlOut/Sigma/z,/CtrlOut/Time,/CtrlOut/Torq/x,/CtrlOut/Torq/y,/CtrlOut/Torq/z,/mavros/imu/data/angular_velocity/x,/mavros/imu/data/angular_velocity/y,/mavros/imu/data/angular_velocity/z,/mavros/imu/data/angular_velocity_covariance[0;0],/mavros/imu/data/angular_velocity_covariance[0;1],/mavros/imu/data/angular_velocity_covariance[0;2],/mavros/imu/data/angular_velocity_covariance[1;1],/mavros/imu/data/angular_velocity_covariance[1;2],/mavros/imu/data/angular_velocity_covariance[2;2],/mavros/imu/data/header/seq,/mavros/imu/data/header/stamp,/mavros/imu/data/linear_acceleration/x,/mavros/imu/data/linear_acceleration/y,/mavros/imu/data/linear_acceleration/z,/mavros/imu/data/linear_acceleration_covariance[0;0],/mavros/imu/data/linear_acceleration_covariance[0;1],/mavros/imu/data/linear_acceleration_covariance[0;2],/mavros/imu/data/linear_acceleration_covariance[1;1],/mavros/imu/data/linear_acceleration_covariance[1;2],/mavros/imu/data/linear_acceleration_covariance[2;2],/mavros/imu/data/orientation/pitch_deg,/mavros/imu/data/orientation/roll_deg,/mavros/imu/data/orientation/w,/mavros/imu/data/orientation/x,/mavros/imu/data/orientation/y,/mavros/imu/data/orientation/yaw_deg,/mavros/imu/data/orientation/z,/mavros/imu/data/orientation_covariance[0;0],/mavros/imu/data/orientation_covariance[0;1],/mavros/imu/data/orientation_covariance[0;2],/mavros/imu/data/orientation_covariance[1;1],/mavros/imu/data/orientation_covariance[1;2],/mavros/imu/data/orientation_covariance[2;2]
1680429013.551911,0.000000,0.000000,0.000000,10.238345,5.146701,11.459156,0.089827,-0.178693,0.000000,0.000000,0.000000,0.000000,0.000000,0.000000,0.000000,0.000000,1.105000,0.000000,0.000000,0.000000,,,,,,,,,,,,,,,,,,,,,,,,,,,,,,,,,
1680429013.554385,0.000000,0.000000,0.000000,10.263951,5.095446,11.459156,0.088932,-0.179140,0.000000,0.000000,0.000000,0.000000,0.000000,0.000000,0.000000,0.000000,1.110000,0.000000,0.000000,0.000000,,,,,,,,,,,,,,,,,,,,,,,,,,,,,,,,,
1680429013.559481,0.000000,0.000000,0.000000,10.289300,5.044062,11.459156,0.088035,-0.179582,0.000000,0.000000,0.000000,0.000000,0.000000,0.000000,0.000000,0.000000,1.115000,0.000000,0.000000,0.000000,,,,,,,,,,,,,,,,,,,,,,,,,,,,,,,,,
1680429013.561800,,,,,,,,,,,,,,,,,,,,,-0.000777,0.000567,-0.000097,0.000000,0.000000,0.000000,0.000000,0.000000,0.000000,60975.000000,1680429013.556146,0.027586,-0.523120,9.819585,0.000000,0.000000,0.000000,0.000000,0.000000,0.000000,-0.240779,-3.043924,-0.999642,0.026554,0.002172,0.310166,-0.002650,1.000000,0.000000,0.000000,1.000000,0.000000,1.000000
1680429013.564391,0.000000,0.000000,0.000000,10.314391,4.992553,11.459156,0.087136,-0.180020,0.000000,0.000000,0.000000,0.000000,0.000000,0.000000,0.000000,0.000000,1.120000,0.000000,0.000000,0.000000,,,,,,,,,,,,,,,,,,,,,,,,,,,,,,,,,
1680429013.569361,0.000000,0.000000,0.000000,10.339225,4.940919,11.459156,0.086235,-0.180454,0.000000,0.000000,0.000000,0.000000,0.000000,0.000000,0.000000,0.000000,1.125000,0.000000,0.000000,0.000000,,,,,,,,,,,,,,,,,,,,,,,,,,,,,,,,,
1680429013.574184,0.000000,0.000000,0.000000,10.363800,4.889161,11.459156,0.085332,-0.180882,0.000000,0.000000,0.000000,0.000000,0.000000,0.000000,0.000000,0.000000,1.130000,0.000000,0.000000,0.000000,,,,,,,,,,,,,,,,,,,,,,,,,,,,,,,,,
1680429013.579564,0.000000,0.000000,0.000000,10.388116,4.837281,11.459156,0.084426,-0.181307,0.000000,0.000000,0.000000,0.000000,0.000000,0.000000,0.000000,0.000000,1.135000,0.000000,0.000000,0.000000,,,,,,,,,,,,,,,,,,,,,,,,,,,,,,,,,
1680429013.582191,,,,,,,,,,,,,,,,,,,,,-0.001503,0.001949,-0.000575,0.000000,0.000000,0.000000,0.000000,0.000000,0.000000,60976.000000,1680429013.576146,0.043548,-0.504644,9.793848,0.000000,0.000000,0.000000,0.000000,0.000000,0.000000,-0.240484,-3.044288,-0.999641,0.026557,0.002169,0.308778,-0.002638,1.000000,0.000000,0.000000,1.000000,0.000000,1.000000
1680429013.584821,0.000000,0.000000,0.000000,10.412173,4.785281,11.459156,0.083519,-0.181727,0.000000,0.000000,0.000000,0.000000,0.000000,0.000000,0.000000,0.000000,1.140000,0.000000,0.000000,0.000000,,,,,,,,,,,,,,,,,,,,,,,,,,,,,,,,,
1680429013.589850,0.000000,0.000000,0.000000,10.435969,4.733160,11.459156,0.082609,-0.182142,0.000000,0.000000,0.000000,0.000000,0.000000,0.000000,0.000000,0.000000,1.145000,0.000000,0.000000,0.000000,,,,,,,,,,,,,,,,,,,,,,,,,,,,,,,,,
1680429013.594599,0.000000,0.000000,0.000000,10.459504,4.680921,11.459156,0.081697,-0.182553,0.000000,0.000000,0.000000,0.000000,0.000000,0.000000,0.000000,0.000000,1.150000,0.000000,0.000000,0.000000,,,,,,,,,,,,,,,,,,,,,,,,,,,,,,,,,
1680429013.599793,0.000000,0.000000,0.000000,10.482778,4.628565,11.459156,0.080784,-0.182959,0.000000,0.000000,0.000000,0.000000,0.000000,0.000000,0.000000,0.000000,1.155000,0.000000,0.000000,0.000000,,,,,,,,,,,,,,,,,,,,,,,,,,,,,,,,,
1680429013.603541,,,,,,,,,,,,,,,,,,,,,-0.001095,0.002727,-0.000367,0.000000,0.000000,0.000000,0.000000,0.000000,0.000000,60977.000000,1680429013.601146,0.034948,-0.520161,9.800474,0.000000,0.000000,0.000000,0.000000,0.000000,0.000000,-0.239937,-3.044484,-0.999642,0.026559,0.002164,0.306952,-0.002622,1.000000,0.000000,0.000000,1.000000,0.000000,1.000000
1680429013.605917,0.000000,0.000000,0.000000,10.505790,4.576094,11.459156,0.079868,-0.183361,0.000000,0.000000,0.000000,0.000000,0.000000,0.000000,0.000000,0.000000,1.160000,0.000000,0.000000,0.000000,,,,,,,,,,,,,,,,,,,,,,,,,,,,,,,,,
1680429013.610177,0.000000,0.000000,0.000000,10.528539,4.523508,11.459156,0.078950,-0.183758,0.000000,0.000000,0.000000,0.000000,0.000000,0.000000,0.000000,0.000000,1.165000,0.000000,0.000000,0.000000,,,,,,,,,,,,,,,,,,,,,,,,,,,,,,,,,
1680429013.614393,0.000000,0.000000,0.000000,10.551025,4.470809,11.459156,0.078030,-0.184150,0.000000,0.000000,0.000000,0.000000,0.000000,0.000000,0.000000,0.000000,1.170000,0.000000,0.000000,0.000000,,,,,,,,,,,,,,,,,,,,,,,,,,,,,,,,,
1680429013.619972,0.000000,0.000000,0.000000,10.573247,4.417998,11.459156,0.077109,-0.184538,0.000000,0.000000,0.000000,0.000000,0.000000,0.000000,0.000000,0.000000,1.175000,0.000000,0.000000,0.000000,,,,,,,,,,,,,,,,,,,,,,,,,,,,,,,,,
1680429013.621436,,,,,,,,,,,,,,,,,,,,,0.001135,-0.001917,-0.000053,0.000000,0.000000,0.000000,0.000000,0.000000,0.000000,60978.000000,1680429013.616146,0.037435,-0.502966,9.802490,0.000000,0.000000,0.000000,0.000000,0.000000,0.000000,-0.241825,-3.043550,-0.999642,0.026551,0.002181,0.306584,-0.002618,1.000000,0.000000,0.000000,1.000000,0.000000,1.000000
1680429013.625181,0.000000,0.000000,0.000000,10.595204,4.365077,11.459156,0.076185,-0.184921,0.000000,0.000000,0.000000,0.000000,0.000000,0.000000,0.000000,0.000000,1.180000,0.000000,0.000000,0.000000,,,,,,,,,,,,,,,,,,,,,,,,,,,,,,,,,
1680429013.629934,0.000000,0.000000,0.000000,10.616897,4.312047,11.459156,0.075259,-0.185300,0.000000,0.000000,0.000000,0.000000,0.000000,0.000000,0.000000,0.000000,1.185000,0.000000,0.000000,0.000000,,,,,,,,,,,,,,,,,,,,,,,,,,,,,,,,,
1680429013.634519,0.000000,0.000000,0.000000,10.638325,4.258908,11.459156,0.074332,-0.185674,0.000000,0.000000,0.000000,0.000000,0.000000,0.000000,0.000000,0.000000,1.190000,0.000000,0.000000,0.000000,,,,,,,,,,,,,,,,,,,,,,,,,,,,,,,,,
1680429013.639248,0.000000,0.000000,0.000000,10.659486,4.205664,11.459156,0.073403,-0.186043,0.000000,0.000000,0.000000,0.000000,0.000000,0.000000,0.000000,0.000000,1.195000,0.000000,0.000000,0.000000,,,,,,,,,,,,,,,,,,,,,,,,,,,,,,,,,
1680429013.642124,,,,,,,,,,,,,,,,,,,,,0.000761,-0.000672,0.000602,0.000000,0.000000,0.000000,0.000000,0.000000,0.000000,60979.000000,1680429013.636147,0.036360,-0.510041,9.815812,0.000000,0.000000,0.000000,0.000000,0.000000,0.000000,-0.241988,-3.043528,-0.999642,0.026551,0.002182,0.306275,-0.002616,1.000000,0.000000,0.000000,1.000000,0.000000,1.000000
1680429013.645419,0.000000,0.000000,0.000000,10.680381,4.152314,11.459156,0.072472,-0.186408,0.000000,0.000000,0.000000,0.000000,0.000000,0.000000,0.000000,0.000000,1.200000,0.000000,0.000000,0.000000,,,,,,,,,,,,,,,,,,,,,,,,,,,,,,,,,
1680429013.652036,0.000000,0.000000,0.000000,10.701009,4.098860,11.459156,0.071539,-0.186768,0.000000,0.000000,0.000000,0.000000,0.000000,0.000000,0.000000,0.000000,1.205000,0.000000,0.000000,0.000000,,,,,,,,,,,,,,,,,,,,,,,,,,,,,,,,,
1680429013.654652,0.000000,0.000000,0.000000,10.721370,4.045304,11.459156,0.070604,-0.187123,0.000000,0.000000,0.000000,0.000000,0.000000,0.000000,0.000000,0.000000,1.210000,0.000000,0.000000,0.000000,,,,,,,,,,,,,,,,,,,,,,,,,,,,,,,,,
1680429013.660464,0.000000,0.000000,0.000000,10.741462,3.991647,11.459156,0.069667,-0.187474,0.000000,0.000000,0.000000,0.000000,0.000000,0.000000,0.000000,0.000000,1.215000,0.000000,0.000000,0.000000,,,,,,,,,,,,,,,,,,,,,,,,,,,,,,,,,
1680429013.664511,,,,,,,,,,,,,,,,,,,,,0.000168,-0.003345,0.000244,0.000000,0.000000,0.000000,0.000000,0.000000,0.000000,60980.000000,1680429013.661146,0.043902,-0.536061,9.784401,0.000000,0.000000,0.000000,0.000000,0.000000,0.000000,-0.241633,-3.044239,-0.999642,0.026557,0.002179,0.305189,-0.002606,1.000000,0.000000,0.000000,1.000000,0.000000,1.000000
1680429013.665369,0.000000,0.000000,0.000000,10.761286,3.937890,11.459156,0.068729,-0.187820,0.000000,0.000000,0.000000,0.000000,0.000000,0.000000,0.000000,0.000000,1.220000,0.000000,0.000000,0.000000,,,,,,,,,,,,,,,,,,,,,,,,,,,,,,,,,
1680429013.669740,0.000000,0.000000,0.000000,10.780841,3.884035,11.459156,0.067789,-0.188161,0.000000,0.000000,0.000000,0.000000,0.000000,0.000000,0.000000,0.000000,1.225000,0.000000,0.000000,0.000000,,,,,,,,,,,,,,,,,,,,,,,,,,,,,,,,,
1680429013.674888,0.000000,0.000000,0.000000,10.800126,3.830082,11.459156,0.066848,-0.188498,0.000000,0.000000,0.000000,0.000000,0.000000,0.000000,0.000000,0.000000,1.230000,0.000000,0.000000,0.000000,,,,,,,,,,,,,,,,,,,,,,,,,,,,,,,,,
1680429013.679849,0.000000,0.000000,0.000000,10.819141,3.776034,11.459156,0.065904,-0.188830,0.000000,0.000000,0.000000,0.000000,0.000000,0.000000,0.000000,0.000000,1.235000,0.000000,0.000000,0.000000,,,,,,,,,,,,,,,,,,,,,,,,,,,,,,,,,
1680429013.682333,,,,,,,,,,,,,,,,,,,,,0.000202,-0.000518,0.001171,0.000000,0.000000,0.000000,0.000000,0.000000,0.000000,60981.000000,1680429013.676147,0.041432,-0.532348,9.798761,0.000000,0.000000,0.000000,0.000000,0.000000,0.000000,-0.241107,-3.044461,-0.999641,0.026559,0.002174,0.305161,-0.002606,1.000000,0.000000,0.000000,1.000000,0.000000,1.000000
1680429013.685143,0.000000,0.000000,0.000000,10.837886,3.721891,11.459156,0.064959,-0.189157,0.000000,0.000000,0.000000,0.000000,0.000000,0.000000,0.000000,0.000000,1.240000,0.000000,0.000000,0.000000,,,,,,,,,,,,,,,,,,,,,,,,,,,,,,,,,
1680429013.690022,0.000000,0.000000,0.000000,10.856360,3.667656,11.459156,0.064013,-0.189479,0.000000,0.000000,0.000000,0.000000,0.000000,0.000000,0.000000,0.000000,1.245000,0.000000,0.000000,0.000000,,,,,,,,,,,,,,,,,,,,,,,,,,,,,,,,,
1680429013.694230,0.000000,0.000000,0.000000,10.874563,3.613328,11.459156,0.063064,-0.189797,0.000000,0.000000,0.000000,0.000000,0.000000,0.000000,0.000000,0.000000,1.250000,0.000000,0.000000,0.000000,,,,,,,,,,,,,,,,,,,,,,,,,,,,,,,,,
1680429013.700295,0.000000,0.000000,0.000000,10.892493,3.558910,11.459156,0.062115,-0.190110,0.000000,0.000000,0.000000,0.000000,0.000000,0.000000,0.000000,0.000000,1.255000,0.000000,0.000000,0.000000,,,,,,,,,,,,,,,,,,,,,,,,,,,,,,,,,
1680429013.705471,,,,,,,,,,,,,,,,,,,,,-0.000754,0.001499,-0.001055,0.000000,0.000000,0.000000,0.000000,0.000000,0.000000,60982.000000,1680429013.696147,0.025583,-0.508062,9.809850,0.000000,0.000000,0.000000,0.000000,0.000000,0.000000,-0.241920,-3.043405,-0.999642,0.026550,0.002181,0.303562,-0.002592,1.000000,0.000000,0.000000,1.000000,0.000000,1.000000
1680429013.707448,0.000000,0.000000,0.000000,10.910152,3.504404,11.459156,0.061163,-0.190418,0.000000,0.000000,0.000000,0.000000,0.000000,0.000000,0.000000,0.000000,1.260000,0.000000,0.000000,0.000000,,,,,,,,,,,,,,,,,,,,,,,,,,,,,,,,,
1680429013.709495,0.000000,0.000000,0.000000,10.927537,3.449809,11.459156,0.060211,-0.190722,0.000000,0.000000,0.000000,0.000000,0.000000,0.000000,0.000000,0.000000,1.265000,0.000000,0.000000,0.000000,,,,,,,,,,,,,,,,,,,,,,,,,,,,,,,,,
1680429013.714406,0.000000,0.000000,0.000000,10.944650,3.395129,11.459156,0.059256,-0.191020,0.000000,0.000000,0.000000,0.000000,0.000000,0.000000,0.000000,0.000000,1.270000,0.000000,0.000000,0.000000,,,,,,,,,,,,,,,,,,,,,,,,,,,,,,,,,
1680429013.719648,0.000000,0.000000,0.000000,10.961488,3.340363,11.459156,0.058300,-0.191314,0.000000,0.000000,0.000000,0.000000,0.000000,0.000000,0.000000,0.000000,1.275000,0.000000,0.000000,0.000000,,,,,,,,,,,,,,,,,,,,,,,,,,,,,,,,,
1680429013.724611,0.000000,0.000000,0.000000,10.978053,3.285514,11.459156,0.057343,-0.191603,0.000000,0.000000,0.000000,0.000000,0.000000,0.000000,0.000000,0.000000,1.280000,0.000000,0.000000,0.000000,,,,,,,,,,,,,,,,,,,,,,,,,,,,,,,,,
1680429013.730644,0.000000,0.000000,0.000000,10.994343,3.230583,11.459156,0.056384,-0.191887,0.000000,0.000000,0.000000,0.000000,0.000000,0.000000,0.000000,0.000000,1.285000,0.000000,0.000000,0.000000,,,,,,,,,,,,,,,,,,,,,,,,,,,,,,,,,
1680429013.735209,0.000000,0.000000,0.000000,11.010359,3.175571,11.459156,0.055424,-0.192167,0.000000,0.000000,0.000000,0.000000,0.000000,0.000000,0.000000,0.000000,1.290000,0.000000,0.000000,0.000000,,,,,,,,,,,,,,,,,,,,,,,,,,,,,,,,,
1680429013.740090,0.000000,0.000000,0.000000,11.026099,3.120480,11.459156,0.054463,-0.192442,0.000000,0.000000,0.000000,0.000000,0.000000,0.000000,0.000000,0.000000,1.295000,0.000000,0.000000,0.000000,,,,,,,,,,,,,,,,,,,,,,,,,,,,,,,,,
1680429013.742118,,,,,,,,,,,,,,,,,,,,,0.000606,-0.001372,-0.000400,0.000000,0.000000,0.000000,0.000000,0.000000,0.000000,60983.000000,1680429013.731147,0.039952,-0.522698,9.781233,0.000000,0.000000,0.000000,0.000000,0.000000,0.000000,-0.242007,-3.042955,-0.999642,0.026546,0.002181,0.302186,-0.002580,1.000000,0.000000,0.000000,1.000000,0.000000,1.000000
1680429013.746726,0.000000,0.000000,0.000000,11.041563,3.065311,11.459156,0.053500,-0.192712,0.000000,0.000000,0.000000,0.000000,0.000000,0.000000,0.000000,0.000000,1.300000,0.000000,0.000000,0.000000,,,,,,,,,,,,,,,,,,,,,,,,,,,,,,,,,
1680429013.752228,0.000000,0.000000,0.000000,11.056752,3.010065,11.459156,0.052536,-0.192977,0.000000,0.000000,0.000000,0.000000,0.000000,0.000000,0.000000,0.000000,1.305000,0.000000,0.000000,0.000000,,,,,,,,,,,,,,,,,,,,,,,,,,,,,,,,,
1680429013.753913,0.000000,0.000000,0.000000,11.071664,2.954744,11.459156,0.051570,-0.193237,0.000000,0.000000,0.000000,0.000000,0.000000,0.000000,0.000000,0.000000,1.310000,0.000000,0.000000,0.000000,,,,,,,,,,,,,,,,,,,,,,,,,,,,,,,,,
1680429013.759660,0.000000,0.000000,0.000000,11.086299,2.899349,11.459156,0.050603,-0.193492,0.000000,0.000000,0.000000,0.000000,0.000000,0.000000,0.000000,0.000000,1.315000,0.000000,0.000000,0.000000,,,,,,,,,,,,,,,,,,,,,,,,,,,,,,,,,
1680429013.762348,,,,,,,,,,,,,,,,,,,,,0.001130,-0.002603,0.000093,0.000000,0.000000,0.000000,0.000000,0.000000,0.000000,60984.000000,1680429013.756147,0.055201,-0.520462,9.776990,0.000000,0.000000,0.000000,0.000000,0.000000,0.000000,-0.242642,-3.042939,-0.999642,0.026546,0.002186,0.300411,-0.002564,1.000000,0.000000,0.000000,1.000000,0.000000,1.000000
1680429013.764533,0.000000,0.000000,0.000000,11.100657,2.843881,11.459156,0.049635,-0.193743,0.000000,0.000000,0.000000,0.000000,0.000000,0.000000,0.000000,0.000000,1.320000,0.000000,0.000000,0.000000,,,,,,,,,,,,,,,,,,,,,,,,,,,,,,,,,
1680429013.769494,0.000000,0.000000,0.000000,11.114738,2.788343,11.459156,0.048666,-0.193989,0.000000,0.000000,0.000000,0.000000,0.000000,0.000000,0.000000,0.000000,1.325000,0.000000,0.000000,0.000000,,,,,,,,,,,,,,,,,,,,,,,,,,,,,,,,,
1680429013.774403,0.000000,0.000000,0.000000,11.128541,2.732734,11.459156,0.047695,-0.194230,0.000000,0.000000,0.000000,0.000000,0.000000,0.000000,0.000000,0.000000,1.330000,0.000000,0.000000,0.000000,,,,,,,,,,,,,,,,,,,,,,,,,,,,,,,,,
1680429013.780178,0.000000,0.000000,0.000000,11.142065,2.677058,11.459156,0.046723,-0.194466,0.000000,0.000000,0.000000,0.000000,0.000000,0.000000,0.000000,0.000000,1.335000,0.000000,0.000000,0.000000,,,,,,,,,,,,,,,,,,,,,,,,,,,,,,,,,
1680429013.780220,,,,,,,,,,,,,,,,,,,,,0.000293,0.000695,0.000139,0.000000,0.000000,0.000000,0.000000,0.000000,0.000000,60985.000000,1680429013.776147,0.031042,-0.527865,9.782882,0.000000,0.000000,0.000000,0.000000,0.000000,0.000000,-0.241361,-3.043446,-0.999642,0.026550,0.002175,0.299363,-0.002556,1.000000,0.000000,0.000000,1.000000,0.000000,1.000000
1680429013.784607,0.000000,0.000000,0.000000,11.155311,2.621314,11.459156,0.045751,-0.194697,0.000000,0.000000,0.000000,0.000000,0.000000,0.000000,0.000000,0.000000,1.340000,0.000000,0.000000,0.000000,,,,,,,,,,,,,,,,,,,,,,,,,,,,,,,,,
1680429013.789446,0.000000,0.000000,0.000000,11.168278,2.565505,11.459156,0.044777,-0.194923,0.000000,0.000000,0.000000,0.000000,0.000000,0.000000,0.000000,0.000000,1.345000,0.000000,0.000000,0.000000,,,,,,,,,,,,,,,,,,,,,,,,,,,,,,,,,
1680429013.794773,0.000000,0.000000,0.000000,11.180966,2.509632,11.459156,0.043801,-0.195145,0.000000,0.000000,0.000000,0.000000,0.000000,0.000000,0.000000,0.000000,1.350000,0.000000,0.000000,0.000000,,,,,,,,,,,,,,,,,,,,,,,,,,,,,,,,,
1680429013.801662,,,,,,,,,,,,,,,,,,,,,-0.001741,0.002278,-0.000067,0.000000,0.000000,0.000000,0.000000,0.000000,0.000000,60986.000000,1680429013.795148,0.035674,-0.526065,9.799401,0.000000,0.000000,0.000000,0.000000,0.000000,0.000000,-0.240041,-3.043695,-0.999642,0.026553,0.002163,0.298701,-0.002550,1.000000,0.000000,0.000000,1.000000,0.000000,1.000000
1680429013.801999,0.000000,0.000000,0.000000,11.193374,2.453696,11.459156,0.042825,-0.195361,0.000000,0.000000,0.000000,0.000000,0.000000,0.000000,0.000000,0.000000,1.355000,0.000000,0.000000,0.000000,,,,,,,,,,,,,,,,,,,,,,,,,,,,,,,,,
1680429013.805083,0.000000,0.000000,0.000000,11.205503,2.397698,11.459156,0.041848,-0.195573,0.000000,0.000000,0.000000,0.000000,0.000000,0.000000,0.000000,0.000000,1.360000,0.000000,0.000000,0.000000,,,,,,,,,,,,,,,,,,,,,,,,,,,,,,,,,
1680429013.809238,0.000000,0.000000,0.000000,11.217351,2.341641,11.459156,0.040869,-0.195780,0.000000,0.000000,0.000000,0.000000,0.000000,0.000000,0.000000,0.000000,1.365000,0.000000,0.000000,0.000000,,,,,,,,,,,,,,,,,,,,,,,,,,,,,,,,,
1680429013.814336,0.000000,0.000000,0.000000,11.228919,2.285525,11.459156,0.039890,-0.195982,0.000000,0.000000,0.000000,0.000000,0.000000,0.000000,0.000000,0.000000,1.370000,0.000000,0.000000,0.000000,,,,,,,,,,,,,,,,,,,,,,,,,,,,,,,,,
1680429013.819486,,,,,,,,,,,,,,,,,,,,,-0.000519,0.002641,-0.000470,0.000000,0.000000,0.000000,0.000000,0.000000,0.000000,60987.000000,1680429013.817148,0.044746,-0.526397,9.801798,0.000000,0.000000,0.000000,0.000000,0.000000,0.000000,-0.239982,-3.043740,-0.999642,0.026553,0.002162,0.296936,-0.002535,1.000000,0.000000,0.000000,1.000000,0.000000,1.000000
1680429013.820845,0.000000,0.000000,0.000000,11.240206,2.229353,11.459156,0.038910,-0.196179,0.000000,0.000000,0.000000,0.000000,0.000000,0.000000,0.000000,0.000000,1.375000,0.000000,0.000000,0.000000,,,,,,,,,,,,,,,,,,,,,,,,,,,,,,,,,
1680429013.825398,0.000000,0.000000,0.000000,11.251213,2.173124,11.459156,0.037928,-0.196371,0.000000,0.000000,0.000000,0.000000,0.000000,0.000000,0.000000,0.000000,1.380000,0.000000,0.000000,0.000000,,,,,,,,,,,,,,,,,,,,,,,,,,,,,,,,,
1680429013.830120,0.000000,0.000000,0.000000,11.261938,2.116841,11.459156,0.036946,-0.196558,0.000000,0.000000,0.000000,0.000000,0.000000,0.000000,0.000000,0.000000,1.385000,0.000000,0.000000,0.000000,,,,,,,,,,,,,,,,,,,,,,,,,,,,,,,,,
1680429013.835161,0.000000,0.000000,0.000000,11.272381,2.060505,11.459156,0.035963,-0.196740,0.000000,0.000000,0.000000,0.000000,0.000000,0.000000,0.000000,0.000000,1.390000,0.000000,0.000000,0.000000,,,,,,,,,,,,,,,,,,,,,,,,,,,,,,,,,
1680429013.837852,,,,,,,,,,,,,,,,,,,,,-0.000017,0.000160,-0.001054,0.000000,0.000000,0.000000,0.000000,0.000000,0.000000,60988.000000,1680429013.831148,0.038735,-0.504561,9.783684,0.000000,0.000000,0.000000,0.000000,0.000000,0.000000,-0.240732,-3.043257,-0.999642,0.026549,0.002169,0.296356,-0.002529,1.000000,0.000000,0.000000,1.000000,0.000000,1.000000
1680429013.839386,0.000000,0.000000,0.000000,11.282543,2.004118,11.459156,0.034978,-0.196918,0.000000,0.000000,0.000000,0.000000,0.000000,0.000000,0.000000,0.000000,1.395000,0.000000,0.000000,0.000000,,,,,,,,,,,,,,,,,,,,,,,,,,,,,,,,,
1680429013.844757,0.000000,0.000000,0.000000,11.292422,1.947680,11.459156,0.033993,-0.197090,0.000000,0.000000,0.000000,0.000000,0.000000,0.000000,0.000000,0.000000,1.400000,0.000000,0.000000,0.000000,,,,,,,,,,,,,,,,,,,,,,,,,,,,,,,,,
1680429013.851310,0.000000,0.000000,0.000000,11.302019,1.891194,11.459156,0.033008,-0.197257,0.000000,0.000000,0.000000,0.000000,0.000000,0.000000,0.000000,0.000000,1.405000,0.000000,0.000000,0.000000,,,,,,,,,,,,,,,,,,,,,,,,,,,,,,,,,
1680429013.854360,0.000000,0.000000,0.000000,11.311334,1.834660,11.459156,0.032021,-0.197420,0.000000,0.000000,0.000000,0.000000,0.000000,0.000000,0.000000,0.000000,1.410000,0.000000,0.000000,0.000000,,,,,,,,,,,,,,,,,,,,,,,,,,,,,,,,,
1680429013.860155,0.000000,0.000000,0.000000,11.320366,1.778081,11.459156,0.031033,-0.197578,0.000000,0.000000,0.000000,0.000000,0.000000,0.000000,0.000000,0.000000,1.415000,0.000000,0.000000,0.000000,,,,,,,,,,,,,,,,,,,,,,,,,,,,,,,,,
1680429013.862616,,,,,,,,,,,,,,,,,,,,,0.000635,-0.000934,-0.000478,0.000000,0.000000,0.000000,0.000000,0.000000,0.000000,60989.000000,1680429013.856148,0.037406,-0.525984,9.793190,0.000000,0.000000,0.000000,0.000000,0.000000,0.000000,-0.240625,-3.042975,-0.999642,0.026546,0.002167,0.294608,-0.002514,1.000000,0.000000,0.000000,1.000000,0.000000,1.000000
1680429013.865309,0.000000,0.000000,0.000000,11.329115,1.721457,11.459156,0.030045,-0.197730,0.000000,0.000000,0.000000,0.000000,0.000000,0.000000,0.000000,0.000000,1.420000,0.000000,0.000000,0.000000,,,,,,,,,,,,,,,,,,,,,,,,,,,,,,,,,
1680429013.869210,0.000000,0.000000,0.000000,11.337580,1.664790,11.459156,0.029056,-0.197878,0.000000,0.000000,0.000000,0.000000,0.000000,0.000000,0.000000,0.000000,1.425000,0.000000,0.000000,0.000000,,,,,,,,,,,,,,,,,,,,,,,,,,,,,,,,,
1680429013.874730,0.000000,0.000000,0.000000,11.345763,1.608082,11.459156,0.028066,-0.198021,0.000000,0.000000,0.000000,0.000000,0.000000,0.000000,0.000000,0.000000,1.430000,0.000000,0.000000,0.000000,,,,,,,,,,,,,,,,,,,,,,,,,,,,,,,,,
1680429013.880581,,,,,,,,,,,,,,,,,,,,,0.001371,-0.011155,-0.007088,0.000000,0.000000,0.000000,0.000000,0.000000,0.000000,60990.000000,1680429013.876148,0.026566,-0.497342,9.791184,0.000000,0.000000,0.000000,0.000000,0.000000,0.000000,-0.246789,-3.041856,-0.999642,0.026536,0.002220,0.290547,-0.002477,1.000000,0.000000,0.000000,1.000000,0.000000,1.000000
1680429013.880935,0.000000,0.000000,0.000000,11.353661,1.551333,11.459156,0.027076,-0.198159,0.000000,0.000000,0.000000,0.000000,0.000000,0.000000,0.000000,0.000000,1.435000,0.000000,0.000000,0.000000,,,,,,,,,,,,,,,,,,,,,,,,,,,,,,,,,
1680429013.885693,0.000000,0.000000,0.000000,11.361276,1.494546,11.459156,0.026085,-0.198292,0.000000,0.000000,0.000000,0.000000,0.000000,0.000000,0.000000,0.000000,1.440000,0.000000,0.000000,0.000000,,,,,,,,,,,,,,,,,,,,,,,,,,,,,,,,,
1680429013.889623,0.000000,0.000000,0.000000,11.368606,1.437721,11.459156,0.025093,-0.198420,0.000000,0.000000,0.000000,0.000000,0.000000,0.000000,0.000000,0.000000,1.445000,0.000000,0.000000,0.000000,,,,,,,,,,,,,,,,,,,,,,,,,,,,,,,,,
1680429013.895392,0.000000,0.000000,0.000000,11.375653,1.380860,11.459156,0.024101,-0.198543,0.000000,0.000000,0.000000,0.000000,0.000000,0.000000,0.000000,0.000000,1.450000,0.000000,0.000000,0.000000,,,,,,,,,,,,,,,,,,,,,,,,,,,,,,,,,
1680429013.900207,0.000000,0.000000,0.000000,11.382415,1.323965,11.459156,0.023108,-0.198661,0.000000,0.000000,0.000000,0.000000,0.000000,0.000000,0.000000,0.000000,1.455000,0.000000,0.000000,0.000000,,,,,,,,,,,,,,,,,,,,,,,,,,,,,,,,,
1680429013.901035,,,,,,,,,,,,,,,,,,,,,0.017224,0.062028,-0.004803,0.000000,0.000000,0.000000,0.000000,0.000000,0.000000,60991.000000,1680429013.896144,0.689620,-1.099972,9.850477,0.000000,0.000000,0.000000,0.000000,0.000000,0.000000,-0.213505,-3.034980,-0.999645,0.026477,0.001929,0.286925,-0.002454,1.000000,0.000000,0.000000,1.000000,0.000000,1.000000
1680429013.904843,0.000000,0.000000,0.000000,11.388893,1.267036,11.459156,0.022114,-0.198774,0.000000,0.000000,0.000000,0.000000,0.000000,0.000000,0.000000,0.000000,1.460000,0.000000,0.000000,0.000000,,,,,,,,,,,,,,,,,,,,,,,,,,,,,,,,,
1680429013.909442,0.000000,0.000000,0.000000,11.395085,1.210076,11.459156,0.021120,-0.198882,0.000000,0.000000,0.000000,0.000000,0.000000,0.000000,0.000000,0.000000,1.465000,0.000000,0.000000,0.000000,,,,,,,,,,,,,,,,,,,,,,,,,,,,,,,,,
1680429013.914858,0.000000,0.000000,0.000000,11.400993,1.153086,11.459156,0.020125,-0.198985,0.000000,0.000000,0.000000,0.000000,0.000000,0.000000,0.000000,0.000000,1.470000,0.000000,0.000000,0.000000,,,,,,,,,,,,,,,,,,,,,,,,,,,,,,,,,
1680429013.918473,,,,,,,,,,,,,,,,,,,,,-0.013316,-0.008680,-0.001995,0.000000,0.000000,0.000000,0.000000,0.000000,0.000000,60992.000000,1680429013.912144,-1.506493,2.745180,9.363259,0.000000,0.000000,0.000000,0.000000,0.000000,0.000000,-0.229850,-3.051800,-0.999641,0.026624,0.002070,0.281068,-0.002398,1.000000,0.000000,0.000000,1.000000,0.000000,1.000000
1680429013.921585,0.000000,0.000000,0.000000,11.406616,1.096067,11.459156,0.019130,-0.199083,0.000000,0.000000,0.000000,0.000000,0.000000,0.000000,0.000000,0.000000,1.475000,0.000000,0.000000,0.000000,,,,,,,,,,,,,,,,,,,,,,,,,,,,,,,,,
1680429013.925592,0.000000,0.000000,0.000000,11.411954,1.039020,11.459156,0.018134,-0.199176,0.000000,0.000000,0.000000,0.000000,0.000000,0.000000,0.000000,0.000000,1.480000,0.000000,0.000000,0.000000,,,,,,,,,,,,,,,,,,,,,,,,,,,,,,,,,
1680429013.929337,0.000000,0.000000,0.000000,11.417006,0.981948,11.459156,0.017138,-0.199264,0.000000,0.000000,0.000000,0.000000,0.000000,0.000000,0.000000,0.000000,1.485000,0.000000,0.000000,0.000000,,,,,,,,,,,,,,,,,,,,,,,,,,,,,,,,,
1680429013.934225,0.000000,0.000000,0.000000,11.421773,0.924851,11.459156,0.016142,-0.199348,0.000000,0.000000,0.000000,0.000000,0.000000,0.000000,0.000000,0.000000,1.490000,0.000000,0.000000,0.000000,,,,,,,,,,,,,,,,,,,,,,,,,,,,,,,,,
1680429013.939820,,,,,,,,,,,,,,,,,,,,,0.071994,-0.015234,0.004060,0.000000,0.000000,0.000000,0.000000,0.000000,0.000000,60993.000000,1680429013.936144,-1.510673,1.086607,9.410231,0.000000,0.000000,0.000000,0.000000,0.000000,0.000000,-0.231697,-3.031089,-0.999645,0.026443,0.002090,0.299245,-0.002557,1.000000,0.000000,0.000000,1.000000,0.000000,1.000000
1680429013.940722,0.000000,0.000000,0.000000,11.426255,0.867731,11.459156,0.015145,-0.199426,0.000000,0.000000,0.000000,0.000000,0.000000,0.000000,0.000000,0.000000,1.495000,0.000000,0.000000,0.000000,,,,,,,,,,,,,,,,,,,,,,,,,,,,,,,,,
1680429013.944907,0.000000,0.000000,0.000000,11.430451,0.810589,11.459156,0.014147,-0.199499,0.000000,0.000000,0.000000,0.000000,0.000000,0.000000,0.000000,0.000000,1.500000,0.000000,0.000000,0.000000,,,,,,,,,,,,,,,,,,,,,,,,,,,,,,,,,
1680429013.950965,0.000000,0.000000,0.000000,11.434361,0.753426,11.459156,0.013150,-0.199567,0.000000,0.000000,0.000000,0.000000,0.000000,0.000000,0.000000,0.000000,1.505000,0.000000,0.000000,0.000000,,,,,,,,,,,,,,,,,,,,,,,,,,,,,,,,,
1680429013.954462,0.000000,0.000000,0.000000,11.437985,0.696245,11.459156,0.012152,-0.199630,0.000000,0.000000,0.000000,0.000000,0.000000,0.000000,0.000000,0.000000,1.510000,0.000000,0.000000,0.000000,,,,,,,,,,,,,,,,,,,,,,,,,,,,,,,,,
1680429013.960189,0.000000,0.000000,0.000000,11.441323,0.639047,11.459156,0.011153,-0.199689,0.000000,0.000000,0.000000,0.000000,0.000000,0.000000,0.000000,0.000000,1.515000,0.000000,0.000000,0.000000,,,,,,,,,,,,,,,,,,,,,,,,,,,,,,,,,
1680429013.961232,,,,,,,,,,,,,,,,,,,,,0.044425,-0.009919,-0.016551,0.000000,0.000000,0.000000,0.000000,0.000000,0.000000,60994.000000,1680429013.952144,0.883213,1.734940,9.587389,0.000000,0.000000,0.000000,0.000000,0.000000,0.000000,-0.228513,-3.063403,-0.999638,0.026725,0.002061,0.289893,-0.002476,1.000000,0.000000,0.000000,1.000000,0.000000,1.000000
1680429013.964427,0.000000,0.000000,0.000000,11.444375,0.581833,11.459156,0.010155,-0.199742,0.000000,0.000000,0.000000,0.000000,0.000000,0.000000,0.000000,0.000000,1.520000,0.000000,0.000000,0.000000,,,,,,,,,,,,,,,,,,,,,,,,,,,,,,,,,
1680429013.970185,0.000000,0.000000,0.000000,11.447141,0.524604,11.459156,0.009156,-0.199790,0.000000,0.000000,0.000000,0.000000,0.000000,0.000000,0.000000,0.000000,1.525000,0.000000,0.000000,0.000000,,,,,,,,,,,,,,,,,,,,,,,,,,,,,,,,,
1680429013.974524,0.000000,0.000000,0.000000,11.449621,0.467362,11.459156,0.008157,-0.199834,0.000000,0.000000,0.000000,0.000000,0.000000,0.000000,0.000000,0.000000,1.530000,0.000000,0.000000,0.000000,,,,,,,,,,,,,,,,,,,,,,,,,,,,,,,,,
1680429013.978592,,,,,,,,,,,,,,,,,,,,,0.014059,-0.048500,0.004877,0.000000,0.000000,0.000000,0.000000,0.000000,0.000000,60995.000000,1680429013.972144,0.036121,-1.480201,9.873395,0.000000,0.000000,0.000000,0.000000,0.000000,0.000000,-0.193553,-3.068042,-0.999637,0.026766,0.001755,0.283294,-0.002426,1.000000,0.000000,0.000000,1.000000,0.000000,1.000000
1680429013.980532,0.000000,0.000000,0.000000,11.451815,0.410108,11.459156,0.007158,-0.199872,0.000000,0.000000,0.000000,0.000000,0.000000,0.000000,0.000000,0.000000,1.535000,0.000000,0.000000,0.000000,,,,,,,,,,,,,,,,,,,,,,,,,,,,,,,,,
1680429013.984371,0.000000,0.000000,0.000000,11.453722,0.352844,11.459156,0.006158,-0.199905,0.000000,0.000000,0.000000,0.000000,0.000000,0.000000,0.000000,0.000000,1.540000,0.000000,0.000000,0.000000,,,,,,,,,,,,,,,,,,,,,,,,,,,,,,,,,
1680429013.989434,0.000000,0.000000,0.000000,11.455343,0.295571,11.459156,0.005159,-0.199933,0.000000,0.000000,0.000000,0.000000,0.000000,0.000000,0.000000,0.000000,1.545000,0.000000,0.000000,0.000000,,,,,,,,,,,,,,,,,,,,,,,,,,,,,,,,,
1680429013.995456,0.000000,0.000000,0.000000,11.456678,0.238291,11.459156,0.004159,-0.199957,0.000000,0.000000,0.000000,0.000000,0.000000,0.000000,0.000000,0.000000,1.550000,0.000000,0.000000,0.000000,,,,,,,,,,,,,,,,,,,,,,,,,,,,,,,,,
1680429013.999595,,,,,,,,,,,,,,,,,,,,,0.029348,-0.037597,0.002321,0.000000,0.000000,0.000000,0.000000,0.000000,0.000000,60996.000000,1680429013.997143,-1.198414,0.027363,9.538167,0.000000,0.000000,0.000000,0.000000,0.000000,0.000000,-0.176475,-3.062169,-0.999639,0.026715,0.001606,0.283567,-0.002433,1.000000,0.000000,0.000000,1.000000,0.000000,1.000000
1680429014.000713,0.000000,0.000000,0.000000,11.457726,0.181005,11.459156,0.003159,-0.199975,0.000000,0.000000,0.000000,0.000000,0.000000,0.000000,0.000000,0.000000,1.555000,0.000000,0.000000,0.000000,,,,,,,,,,,,,,,,,,,,,,,,,,,,,,,,,
1680429014.004633,0.000000,0.000000,0.000000,11.458488,0.123714,11.459156,0.002159,-0.199988,0.000000,0.000000,0.000000,0.000000,0.000000,0.000000,0.000000,0.000000,1.560000,0.000000,0.000000,0.000000,,,,,,,,,,,,,,,,,,,,,,,,,,,,,,,,,
1680429014.009284,0.000000,0.000000,0.000000,11.458963,0.066421,11.459156,0.001159,-0.199997,0.000000,0.000000,0.000000,0.000000,0.000000,0.000000,0.000000,0.000000,1.565000,0.000000,0.000000,0.000000,,,,,,,,,,,,,,,,,,,,,,,,,,,,,,,,,
1680429014.014328,0.000000,0.000000,0.000000,11.459152,0.009125,11.459156,0.000159,-0.200000,0.000000,0.000000,0.000000,0.000000,0.000000,0.000000,0.000000,0.000000,1.570000,0.000000,0.000000,0.000000,,,,,,,,,,,,,,,,,,,,,,,,,,,,,,,,,
1680429014.019698,0.000000,0.000000,0.000000,11.459055,-0.048170,11.459156,-0.000841,-0.199998,0.000000,0.000000,0.000000,0.000000,0.000000,0.000000,0.000000,0.000000,1.575000,0.000000,0.000000,0.000000,,,,,,,,,,,,,,,,,,,,,,,,,,,,,,,,,
1680429014.021410,,,,,,,,,,,,,,,,,,,,,-0.002870,0.018477,-0.002651,0.000000,0.000000,0.000000,0.000000,0.000000,0.000000,60997.000000,1680429014.017143,2.653955,-0.586890,9.804995,0.000000,0.000000,0.000000,0.000000,0.000000,0.000000,-0.138921,-3.077835,-0.999636,0.026853,0.001278,0.281897,-0.002427,1.000000,0.000000,0.000000,1.000000,0.000000,1.000000
1680429014.024810,0.000000,0.000000,0.000000,11.458671,-0.105465,11.459156,-0.001841,-0.199992,0.000000,0.000000,0.000000,0.000000,0.000000,0.000000,0.000000,0.000000,1.580000,0.000000,0.000000,0.000000,,,,,,,,,,,,,,,,,,,,,,,,,,,,,,,,,
1680429014.030648,0.000000,0.000000,0.000000,11.458000,-0.162757,11.459156,-0.002841,-0.199980,0.000000,0.000000,0.000000,0.000000,0.000000,0.000000,0.000000,0.000000,1.585000,0.000000,0.000000,0.000000,,,,,,,,,,,,,,,,,,,,,,,,,,,,,,,,,
1680429014.034318,0.000000,0.000000,0.000000,11.457043,-0.220044,11.459156,-0.003840,-0.199963,0.000000,0.000000,0.000000,0.000000,0.000000,0.000000,0.000000,0.000000,1.590000,0.000000,0.000000,0.000000,,,,,,,,,,,,,,,,,,,,,,,,,,,,,,,,,
1680429014.037866,,,,,,,,,,,,,,,,,,,,,-0.005862,0.014591,0.001398,0.000000,0.000000,0.000000,0.000000,0.000000,0.000000,60998.000000,1680429014.032143,-1.796831,0.446745,9.602313,0.000000,0.000000,0.000000,0.000000,0.000000,0.000000,-0.122664,-3.078342,-0.999636,0.026858,0.001136,0.280924,-0.002422,1.000000,0.000000,0.000000,1.000000,0.000000,1.000000
1680429014.039307,0.000000,0.000000,0.000000,11.455800,-0.277327,11.459156,-0.004840,-0.199941,0.000000,0.000000,0.000000,0.000000,0.000000,0.000000,0.000000,0.000000,1.595000,0.000000,0.000000,0.000000,,,,,,,,,,,,,,,,,,,,,,,,,,,,,,,,,
1680429014.044724,0.000000,0.000000,0.000000,11.454270,-0.334602,11.459156,-0.005840,-0.199915,0.000000,0.000000,0.000000,0.000000,0.000000,0.000000,0.000000,0.000000,1.600000,0.000000,0.000000,0.000000,,,,,,,,,,,,,,,,,,,,,,,,,,,,,,,,,
1680429014.056084,0.000000,0.000000,0.000000,11.452454,-0.391869,11.459156,-0.006839,-0.199883,0.000000,0.000000,0.000000,0.000000,0.000000,0.000000,0.000000,0.000000,1.605000,0.000000,0.000000,0.000000,,,,,,,,,,,,,,,,,,,,,,,,,,,,,,,,,
1680429014.060625,0.000000,0.000000,0.000000,11.450351,-0.449126,11.459156,-0.007839,-0.199846,0.000000,0.000000,0.000000,0.000000,0.000000,0.000000,0.000000,0.000000,1.610000,0.000000,0.000000,0.000000,,,,,,,,,,,,,,,,,,,,,,,,,,,,,,,,,
1680429014.060656,0.000000,0.000000,0.000000,11.447962,-0.506372,11.459156,-0.008838,-0.199805,0.000000,0.000000,0.000000,0.000000,0.000000,0.000000,0.000000,0.000000,1.615000,0.000000,0.000000,0.000000,,,,,,,,,,,,,,,,,,,,,,,,,,,,,,,,,
1680429014.066049,,,,,,,,,,,,,,,,,,,,,-0.007535,0.018877,-0.000407,0.000000,0.000000,0.000000,0.000000,0.000000,0.000000,60999.000000,1680429014.057143,-1.510418,0.001183,9.631795,0.000000,0.000000,0.000000,0.000000,0.000000,0.000000,-0.114964,-3.080721,-0.999635,0.026879,0.001069,0.282599,-0.002438,1.000000,0.000000,0.000000,1.000000,0.000000,1.000000
1680429014.066158,0.000000,0.000000,0.000000,11.445287,-0.563605,11.459156,-0.009837,-0.199758,0.000000,0.000000,0.000000,0.000000,0.000000,0.000000,0.000000,0.000000,1.620000,0.000000,0.000000,0.000000,,,,,,,,,,,,,,,,,,,,,,,,,,,,,,,,,
1680429014.072182,0.000000,0.000000,0.000000,11.442326,-0.620824,11.459156,-0.010835,-0.199706,0.000000,0.000000,0.000000,0.000000,0.000000,0.000000,0.000000,0.000000,1.625000,0.000000,0.000000,0.000000,,,,,,,,,,,,,,,,,,,,,,,,,,,,,,,,,
1680429014.074066,0.000000,0.000000,0.000000,11.439079,-0.678028,11.459156,-0.011834,-0.199650,0.000000,0.000000,0.000000,0.000000,0.000000,0.000000,0.000000,0.000000,1.630000,0.000000,0.000000,0.000000,,,,,,,,,,,,,,,,,,,,,,,,,,,,,,,,,
1680429014.079409,0.000000,0.000000,0.000000,11.435546,-0.735215,11.459156,-0.012832,-0.199588,0.000000,0.000000,0.000000,0.000000,0.000000,0.000000,0.000000,0.000000,1.635000,0.000000,0.000000,0.000000,,,,,,,,,,,,,,,,,,,,,,,,,,,,,,,,,
1680429014.080412,,,,,,,,,,,,,,,,,,,,,-0.015850,0.046319,-0.001649,0.000000,0.000000,0.000000,0.000000,0.000000,0.000000,61000.000000,1680429014.077143,0.220930,-0.949585,9.770286,0.000000,0.000000,0.000000,0.000000,0.000000,0.000000,-0.099046,-3.085720,-0.999634,0.026923,0.000931,0.283176,-0.002447,1.000000,0.000000,0.000000,1.000000,0.000000,1.000000
1680429014.084565,0.000000,0.000000,0.000000,11.431727,-0.792383,11.459156,-0.013830,-0.199521,0.000000,0.000000,0.000000,0.000000,0.000000,0.000000,0.000000,0.000000,1.640000,0.000000,0.000000,0.000000,,,,,,,,,,,,,,,,,,,,,,,,,,,,,,,,,
1680429014.090273,0.000000,0.000000,0.000000,11.427622,-0.849531,11.459156,-0.014827,-0.199450,0.000000,0.000000,0.000000,0.000000,0.000000,0.000000,0.000000,0.000000,1.645000,0.000000,0.000000,0.000000,,,,,,,,,,,,,,,,,,,,,,,,,,,,,,,,,
1680429014.095496,0.000000,0.000000,0.000000,11.423232,-0.906659,11.459156,-0.015824,-0.199373,0.000000,0.000000,0.000000,0.000000,0.000000,0.000000,0.000000,0.000000,1.650000,0.000000,0.000000,0.000000,,,,,,,,,,,,,,,,,,,,,,,,,,,,,,,,,
1680429014.098096,,,,,,,,,,,,,,,,,,,,,-0.017868,0.022778,0.000301,0.000000,0.000000,0.000000,0.000000,0.000000,0.000000,61001.000000,1680429014.092144,-0.478060,-0.207996,9.778289,0.000000,0.000000,0.000000,0.000000,0.000000,0.000000,-0.105642,-3.079780,-0.999635,0.026871,0.000988,0.283386,-0.002447,1.000000,0.000000,0.000000,1.000000,0.000000,1.000000
1680429014.101395,0.000000,0.000000,0.000000,11.418556,-0.963763,11.459156,-0.016821,-0.199291,0.000000,0.000000,0.000000,0.000000,0.000000,0.000000,0.000000,0.000000,1.655000,0.000000,0.000000,0.000000,,,,,,,,,,,,,,,,,,,,,,,,,,,,,,,,,
1680429014.104125,0.000000,0.000000,0.000000,11.413594,-1.020844,11.459156,-0.017817,-0.199205,0.000000,0.000000,0.000000,0.000000,0.000000,0.000000,0.000000,0.000000,1.660000,0.000000,0.000000,0.000000,,,,,,,,,,,,,,,,,,,,,,,,,,,,,,,,,
1680429014.108940,0.000000,0.000000,0.000000,11.408347,-1.077899,11.459156,-0.018813,-0.199113,0.000000,0.000000,0.000000,0.000000,0.000000,0.000000,0.000000,0.000000,1.665000,0.000000,0.000000,0.000000,,,,,,,,,,,,,,,,,,,,,,,,,,,,,,,,,
1680429014.114234,0.000000,0.000000,0.000000,11.402815,-1.134927,11.459156,-0.019808,-0.199017,0.000000,0.000000,0.000000,0.000000,0.000000,0.000000,0.000000,0.000000,1.670000,0.000000,0.000000,0.000000,,,,,,,,,,,,,,,,,,,,,,,,,,,,,,,,,
1680429014.119415,,,,,,,,,,,,,,,,,,,,,-0.001775,0.010193,-0.000686,0.000000,0.000000,0.000000,0.000000,0.000000,0.000000,61002.000000,1680429014.117144,0.459468,0.409869,9.698991,0.000000,0.000000,0.000000,0.000000,0.000000,0.000000,-0.090948,-3.083786,-0.999635,0.026906,0.000860,0.283410,-0.002451,1.000000,0.000000,0.000000,1.000000,0.000000,1.000000
1680429014.121005,0.000000,0.000000,0.000000,11.396998,-1.191926,11.459156,-0.020803,-0.198915,0.000000,0.000000,0.000000,0.000000,0.000000,0.000000,0.000000,0.000000,1.675000,0.000000,0.000000,0.000000,,,,,,,,,,,,,,,,,,,,,,,,,,,,,,,,,
1680429014.124665,0.000000,0.000000,0.000000,11.390896,-1.248896,11.459156,-0.021797,-0.198809,0.000000,0.000000,0.000000,0.000000,0.000000,0.000000,0.000000,0.000000,1.680000,0.000000,0.000000,0.000000,,,,,,,,,,,,,,,,,,,,,,,,,,,,,,,,,
1680429014.130242,0.000000,0.000000,0.000000,11.384509,-1.305835,11.459156,-0.022791,-0.198697,0.000000,0.000000,0.000000,0.000000,0.000000,0.000000,0.000000,0.000000,1.685000,0.000000,0.000000,0.000000,,,,,,,,,,,,,,,,,,,,,,,,,,,,,,,,,
1680429014.134240,0.000000,0.000000,0.000000,11.377838,-1.362741,11.459156,-0.023784,-0.198581,0.000000,0.000000,0.000000,0.000000,0.000000,0.000000,0.000000,0.000000,1.690000,0.000000,0.000000,0.000000,,,,,,,,,,,,,,,,,,,,,,,,,,,,,,,,,
1680429014.139141,0.000000,0.000000,0.000000,11.370882,-1.419613,11.459156,-0.024777,-0.198459,0.000000,0.000000,0.000000,0.000000,0.000000,0.000000,0.000000,0.000000,1.695000,0.000000,0.000000,0.000000,,,,,,,,,,,,,,,,,,,,,,,,,,,,,,,,,
1680429014.140500,,,,,,,,,,,,,,,,,,,,,-0.018032,0.022835,0.000501,0.000000,0.000000,0.000000,0.000000,0.000000,0.000000,61003.000000,1680429014.137144,0.405589,-0.455872,9.793206,0.000000,0.000000,0.000000,0.000000,0.000000,0.000000,-0.079919,-3.090679,-0.999633,0.026966,0.000764,0.283162,-0.002451,1.000000,0.000000,0.000000,1.000000,0.000000,1.000000
1680429014.145189,0.000000,0.000000,0.000000,11.363642,-1.476449,11.459156,-0.025769,-0.198333,0.000000,0.000000,0.000000,0.000000,0.000000,0.000000,0.000000,0.000000,1.700000,0.000000,0.000000,0.000000,,,,,,,,,,,,,,,,,,,,,,,,,,,,,,,,,
1680429014.151054,0.000000,0.000000,0.000000,11.356117,-1.533249,11.459156,-0.026760,-0.198202,0.000000,0.000000,0.000000,0.000000,0.000000,0.000000,0.000000,0.000000,1.705000,0.000000,0.000000,0.000000,,,,,,,,,,,,,,,,,,,,,,,,,,,,,,,,,
1680429014.154453,0.000000,0.000000,0.000000,11.348309,-1.590010,11.459156,-0.027751,-0.198065,0.000000,0.000000,0.000000,0.000000,0.000000,0.000000,0.000000,0.000000,1.710000,0.000000,0.000000,0.000000,,,,,,,,,,,,,,,,,,,,,,,,,,,,,,,,,
1680429014.159760,0.000000,0.000000,0.000000,11.340217,-1.646731,11.459156,-0.028741,-0.197924,0.000000,0.000000,0.000000,0.000000,0.000000,0.000000,0.000000,0.000000,1.715000,0.000000,0.000000,0.000000,,,,,,,,,,,,,,,,,,,,,,,,,,,,,,,,,
1680429014.162099,,,,,,,,,,,,,,,,,,,,,-0.010668,0.012374,0.001596,0.000000,0.000000,0.000000,0.000000,0.000000,0.000000,61004.000000,1680429014.157144,-0.280630,-1.134200,9.918892,0.000000,0.000000,0.000000,0.000000,0.000000,0.000000,-0.079011,-3.089041,-0.999633,0.026952,0.000756,0.282508,-0.002446,1.000000,0.000000,0.000000,1.000000,0.000000,1.000000
1680429014.164909,0.000000,0.000000,0.000000,11.331842,-1.703412,11.459156,-0.029730,-0.197778,0.000000,0.000000,0.000000,0.000000,0.000000,0.000000,0.000000,0.000000,1.720000,0.000000,0.000000,0.000000,,,,,,,,,,,,,,,,,,,,,,,,,,,,,,,,,
1680429014.169395,0.000000,0.000000,0.000000,11.323183,-1.760049,11.459156,-0.030719,-0.197627,0.000000,0.000000,0.000000,0.000000,0.000000,0.000000,0.000000,0.000000,1.725000,0.000000,0.000000,0.000000,,,,,,,,,,,,,,,,,,,,,,,,,,,,,,,,,
1680429014.174220,0.000000,0.000000,0.000000,11.314242,-1.816643,11.459156,-0.031706,-0.197471,0.000000,0.000000,0.000000,0.000000,0.000000,0.000000,0.000000,0.000000,1.730000,0.000000,0.000000,0.000000,,,,,,,,,,,,,,,,,,,,,,,,,,,,,,,,,
1680429014.180045,0.000000,0.000000,0.000000,11.305017,-1.873191,11.459156,-0.032693,-0.197310,0.000000,0.000000,0.000000,0.000000,0.000000,0.000000,0.000000,0.000000,1.735000,0.000000,0.000000,0.000000,,,,,,,,,,,,,,,,,,,,,,,,,,,,,,,,,
1680429014.180918,,,,,,,,,,,,,,,,,,,,,-0.010127,0.003550,0.002842,0.000000,0.000000,0.000000,0.000000,0.000000,0.000000,61005.000000,1680429014.177144,-0.514700,-0.475765,9.812789,0.000000,0.000000,0.000000,0.000000,0.000000,0.000000,-0.075627,-3.087269,-0.999634,0.026937,0.000726,0.283570,-0.002456,1.000000,0.000000,0.000000,1.000000,0.000000,1.000000
1680429014.184586,0.000000,0.000000,0.000000,11.295510,-1.929693,11.459156,-0.033679,-0.197144,0.000000,0.000000,0.000000,0.000000,0.000000,0.000000,0.000000,0.000000,1.740000,0.000000,0.000000,0.000000,,,,,,,,,,,,,,,,,,,,,,,,,,,,,,,,,
1680429014.189904,0.000000,0.000000,0.000000,11.285720,-1.986146,11.459156,-0.034665,-0.196973,0.000000,0.000000,0.000000,0.000000,0.000000,0.000000,0.000000,0.000000,1.745000,0.000000,0.000000,0.000000,,,,,,,,,,,,,,,,,,,,,,,,,,,,,,,,,
1680429014.195394,0.000000,0.000000,0.000000,11.275648,-2.042549,11.459156,-0.035649,-0.196797,0.000000,0.000000,0.000000,0.000000,0.000000,0.000000,0.000000,0.000000,1.750000,0.000000,0.000000,0.000000,,,,,,,,,,,,,,,,,,,,,,,,,,,,,,,,,
1680429014.198100,,,,,,,,,,,,,,,,,,,,,-0.007268,0.013665,-0.002613,0.000000,0.000000,0.000000,0.000000,0.000000,0.000000,61006.000000,1680429014.192145,0.319811,-0.873354,9.878724,0.000000,0.000000,0.000000,0.000000,0.000000,0.000000,-0.072204,-3.086479,-0.999634,0.026930,0.000696,0.281762,-0.002441,1.000000,0.000000,0.000000,1.000000,0.000000,1.000000
1680429014.200609,0.000000,0.000000,0.000000,11.265295,-2.098902,11.459156,-0.036633,-0.196616,0.000000,0.000000,0.000000,0.000000,0.000000,0.000000,0.000000,0.000000,1.755000,0.000000,0.000000,0.000000,,,,,,,,,,,,,,,,,,,,,,,,,,,,,,,,,
1680429014.204806,0.000000,0.000000,0.000000,11.254659,-2.155202,11.459156,-0.037615,-0.196431,0.000000,0.000000,0.000000,0.000000,0.000000,0.000000,0.000000,0.000000,1.760000,0.000000,0.000000,0.000000,,,,,,,,,,,,,,,,,,,,,,,,,,,,,,,,,
1680429014.209176,0.000000,0.000000,0.000000,11.243743,-2.211448,11.459156,-0.038597,-0.196240,0.000000,0.000000,0.000000,0.000000,0.000000,0.000000,0.000000,0.000000,1.765000,0.000000,0.000000,0.000000,,,,,,,,,,,,,,,,,,,,,,,,,,,,,,,,,
1680429014.214327,0.000000,0.000000,0.000000,11.232545,-2.267639,11.459156,-0.039578,-0.196045,0.000000,0.000000,0.000000,0.000000,0.000000,0.000000,0.000000,0.000000,1.770000,0.000000,0.000000,0.000000,,,,,,,,,,,,,,,,,,,,,,,,,,,,,,,,,
1680429014.220204,,,,,,,,,,,,,,,,,,,,,0.031313,-0.017962,0.022703,0.000000,0.000000,0.000000,0.000000,0.000000,0.000000,61007.000000,1680429014.217145,0.157449,-0.339486,9.790133,0.000000,0.000000,0.000000,0.000000,0.000000,0.000000,-0.077204,-3.070691,-0.999638,0.026792,0.000742,0.292089,-0.002530,1.000000,0.000000,0.000000,1.000000,0.000000,1.000000
1680429014.220398,0.000000,0.000000,0.000000,11.221067,-2.323773,11.459156,-0.040557,-0.195845,0.000000,0.000000,0.000000,0.000000,0.000000,0.000000,0.000000,0.000000,1.775000,0.000000,0.000000,0.000000,,,,,,,,,,,,,,,,,,,,,,,,,,,,,,,,,
1680429014.225897,0.000000,0.000000,0.000000,11.209307,-2.379849,11.459156,-0.041536,-0.195639,0.000000,0.000000,0.000000,0.000000,0.000000,0.000000,0.000000,0.000000,1.780000,0.000000,0.000000,0.000000,,,,,,,,,,,,,,,,,,,,,,,,,,,,,,,,,
1680429014.229429,0.000000,0.000000,0.000000,11.197268,-2.435866,11.459156,-0.042514,-0.195429,0.000000,0.000000,0.000000,0.000000,0.000000,0.000000,0.000000,0.000000,1.785000,0.000000,0.000000,0.000000,,,,,,,,,,,,,,,,,,,,,,,,,,,,,,,,,
1680429014.234628,0.000000,0.000000,0.000000,11.184949,-2.491821,11.459156,-0.043490,-0.195214,0.000000,0.000000,0.000000,0.000000,0.000000,0.000000,0.000000,0.000000,1.790000,0.000000,0.000000,0.000000,,,,,,,,,,,,,,,,,,,,,,,,,,,,,,,,,
1680429014.240658,,,,,,,,,,,,,,,,,,,,,-0.059096,0.133228,0.116301,0.000000,0.000000,0.000000,0.000000,0.000000,0.000000,61008.000000,1680429014.237145,0.998307,1.314904,10.001129,0.000000,0.000000,0.000000,0.000000,0.000000,0.000000,0.007071,-3.102030,-0.999628,0.027067,0.000032,0.398075,-0.003474,1.000000,0.000000,0.000000,1.000000,0.000000,1.000000
1680429014.240903,0.000000,0.000000,0.000000,11.172350,-2.547715,11.459156,-0.044466,-0.194994,0.000000,0.000000,0.000000,0.000000,0.000000,0.000000,0.000000,0.000000,1.795000,0.000000,0.000000,0.000000,,,,,,,,,,,,,,,,,,,,,,,,,,,,,,,,,
1680429014.246943,0.000000,0.000000,0.000000,11.159472,-2.603544,11.459156,-0.045440,-0.194770,0.000000,0.000000,0.000000,0.000000,0.000000,0.000000,0.000000,0.000000,1.800000,0.000000,0.000000,0.000000,,,,,,,,,,,,,,,,,,,,,,,,,,,,,,,,,
1680429014.249739,0.000000,0.000000,0.000000,11.146315,-2.659309,11.459156,-0.046414,-0.194540,0.000000,0.000000,0.000000,0.000000,0.000000,0.000000,0.000000,0.000000,1.805000,0.000000,0.000000,0.000000,,,,,,,,,,,,,,,,,,,,,,,,,,,,,,,,,
1680429014.255308,0.000000,0.000000,0.000000,11.132879,-2.715007,11.459156,-0.047386,-0.194305,0.000000,0.000000,0.000000,0.000000,0.000000,0.000000,0.000000,0.000000,1.810000,0.000000,0.000000,0.000000,,,,,,,,,,,,,,,,,,,,,,,,,,,,,,,,,
1680429014.259414,0.000000,0.000000,0.000000,11.119165,-2.770637,11.459156,-0.048357,-0.194066,0.000000,0.000000,0.000000,0.000000,0.000000,0.000000,0.000000,0.000000,1.815000,0.000000,0.000000,0.000000,,,,,,,,,,,,,,,,,,,,,,,,,,,,,,,,,
1680429014.262791,,,,,,,,,,,,,,,,,,,,,0.162404,0.209325,0.179738,0.000000,0.000000,0.000000,0.000000,0.000000,0.000000,61009.000000,1680429014.257145,3.323168,-1.855685,9.547975,0.000000,0.000000,0.000000,0.000000,0.000000,0.000000,0.185650,-2.952263,-0.999654,0.025768,-0.001491,0.571948,-0.005031,1.000000,0.000000,0.000000,1.000000,0.000000,1.000000
1680429014.264365,0.000000,0.000000,0.000000,11.105173,-2.826198,11.459156,-0.049326,-0.193822,0.000000,0.000000,0.000000,0.000000,0.000000,0.000000,0.000000,0.000000,1.820000,0.000000,0.000000,0.000000,,,,,,,,,,,,,,,,,,,,,,,,,,,,,,,,,
1680429014.269475,0.000000,0.000000,0.000000,11.090903,-2.881688,11.459156,-0.050295,-0.193573,0.000000,0.000000,0.000000,0.000000,0.000000,0.000000,0.000000,0.000000,1.825000,0.000000,0.000000,0.000000,,,,,,,,,,,,,,,,,,,,,,,,,,,,,,,,,
1680429014.274291,0.000000,0.000000,0.000000,11.076356,-2.937107,11.459156,-0.051262,-0.193319,0.000000,0.000000,0.000000,0.000000,0.000000,0.000000,0.000000,0.000000,1.830000,0.000000,0.000000,0.000000,,,,,,,,,,,,,,,,,,,,,,,,,,,,,,,,,
1680429014.279912,0.000000,0.000000,0.000000,11.061532,-2.992451,11.459156,-0.052228,-0.193060,0.000000,0.000000,0.000000,0.000000,0.000000,0.000000,0.000000,0.000000,1.835000,0.000000,0.000000,0.000000,,,,,,,,,,,,,,,,,,,,,,,,,,,,,,,,,
1680429014.281141,,,,,,,,,,,,,,,,,,,,,0.321055,0.152914,0.330209,0.000000,0.000000,0.000000,0.000000,0.000000,0.000000,61010.000000,1680429014.277145,-1.646560,0.860921,9.613650,0.000000,0.000000,0.000000,0.000000,0.000000,0.000000,0.456142,-2.708163,-0.999681,0.023661,-0.003793,0.904037,-0.007981,1.000000,0.000000,0.000000,1.000000,0.000000,1.000000
1680429014.284887,0.000000,0.000000,0.000000,11.046431,-3.047722,11.459156,-0.053193,-0.192797,0.000000,0.000000,0.000000,0.000000,0.000000,0.000000,0.000000,0.000000,1.840000,0.000000,0.000000,0.000000,,,,,,,,,,,,,,,,,,,,,,,,,,,,,,,,,
1680429014.290602,0.000000,0.000000,0.000000,11.031055,-3.102915,11.459156,-0.054156,-0.192528,0.000000,0.000000,0.000000,0.000000,0.000000,0.000000,0.000000,0.000000,1.845000,0.000000,0.000000,0.000000,,,,,,,,,,,,,,,,,,,,,,,,,,,,,,,,,
1680429014.295282,0.000000,0.000000,0.000000,11.015402,-3.158032,11.459156,-0.055118,-0.192255,0.000000,0.000000,0.000000,0.000000,0.000000,0.000000,0.000000,0.000000,1.850000,0.000000,0.000000,0.000000,,,,,,,,,,,,,,,,,,,,,,,,,,,,,,,,,
1680429014.297989,,,,,,,,,,,,,,,,,,,,,0.481630,0.314462,0.406534,0.000000,0.000000,0.000000,0.000000,0.000000,0.000000,61011.000000,1680429014.292145,5.731646,6.287807,9.343395,0.000000,0.000000,0.000000,0.000000,0.000000,0.000000,0.813917,-2.373954,-0.999701,0.020790,-0.006879,1.228814,-0.010868,1.000000,0.000000,0.000000,1.000000,0.000000,1.000000
1680429014.300348,0.000000,0.000000,0.000000,10.999475,-3.213069,11.459156,-0.056079,-0.191977,0.000000,0.000000,0.000000,0.000000,0.000000,0.000000,0.000000,0.000000,1.855000,0.000000,0.000000,0.000000,,,,,,,,,,,,,,,,,,,,,,,,,,,,,,,,,
1680429014.304942,0.000000,0.000000,0.000000,10.983272,-3.268026,11.459156,-0.057038,-0.191694,0.000000,0.000000,0.000000,0.000000,0.000000,0.000000,0.000000,0.000000,1.860000,0.000000,0.000000,0.000000,,,,,,,,,,,,,,,,,,,,,,,,,,,,,,,,,
1680429014.309242,0.000000,0.000000,0.000000,10.966795,-3.322901,11.459156,-0.057996,-0.191407,0.000000,0.000000,0.000000,0.000000,0.000000,0.000000,0.000000,0.000000,1.865000,0.000000,0.000000,0.000000,,,,,,,,,,,,,,,,,,,,,,,,,,,,,,,,,
1680429014.314443,0.000000,0.000000,0.000000,10.950043,-3.377693,11.459156,-0.058952,-0.191114,0.000000,0.000000,0.000000,0.000000,0.000000,0.000000,0.000000,0.000000,1.870000,0.000000,0.000000,0.000000,,,,,,,,,,,,,,,,,,,,,,,,,,,,,,,,,
1680429014.320007,0.000000,0.000000,0.000000,10.933018,-3.432401,11.459156,-0.059907,-0.190817,0.000000,0.000000,0.000000,0.000000,0.000000,0.000000,0.000000,0.000000,1.875000,0.000000,0.000000,0.000000,,,,,,,,,,,,,,,,,,,,,,,,,,,,,,,,,
1680429014.320982,,,,,,,,,,,,,,,,,,,,,0.630414,0.398405,0.518571,0.000000,0.000000,0.000000,0.000000,0.000000,0.000000,61012.000000,1680429014.312145,2.352414,3.854419,8.968440,0.000000,0.000000,0.000000,0.000000,0.000000,0.000000,1.331157,-1.794981,-0.999691,0.015838,-0.011375,1.745121,-0.015407,1.000000,0.000000,0.000000,1.000000,0.000000,1.000000
1680429014.325641,0.000000,0.000000,0.000000,10.915719,-3.487023,11.459156,-0.060860,-0.190515,0.000000,0.000000,0.000000,0.000000,0.000000,0.000000,0.000000,0.000000,1.880000,0.000000,0.000000,0.000000,,,,,,,,,,,,,,,,,,,,,,,,,,,,,,,,,
1680429014.330289,0.000000,0.000000,0.000000,10.898148,-3.541558,11.459156,-0.061812,-0.190209,0.000000,0.000000,0.000000,0.000000,0.000000,0.000000,0.000000,0.000000,1.885000,0.000000,0.000000,0.000000,,,,,,,,,,,,,,,,,,,,,,,,,,,,,,,,,
1680429014.334184,0.000000,0.000000,0.000000,10.880304,-3.596004,11.459156,-0.062762,-0.189897,0.000000,0.000000,0.000000,0.000000,0.000000,0.000000,0.000000,0.000000,1.890000,0.000000,0.000000,0.000000,,,,,,,,,,,,,,,,,,,,,,,,,,,,,,,,,
1680429014.339465,0.000000,0.000000,0.000000,10.862188,-3.650360,11.459156,-0.063711,-0.189581,0.000000,0.000000,0.000000,0.000000,0.000000,0.000000,0.000000,0.000000,1.895000,0.000000,0.000000,0.000000,,,,,,,,,,,,,,,,,,,,,,,,,,,,,,,,,
1680429014.341233,,,,,,,,,,,,,,,,,,,,,1.199648,0.106044,0.634271,0.000000,0.000000,0.000000,0.000000,0.000000,0.000000,61013.000000,1680429014.337145,-0.899295,1.220978,8.465229,0.000000,0.000000,0.000000,0.000000,0.000000,0.000000,1.668641,-0.375489,-0.999633,0.003604,-0.014483,2.587528,-0.022624,1.000000,0.000000,0.000000,1.000000,0.000000,1.000000
1680429014.344666,0.000000,0.000000,0.000000,10.843800,-3.704626,11.459156,-0.064658,-0.189260,0.000000,0.000000,0.000000,0.000000,0.000000,0.000000,0.000000,0.000000,1.900000,0.000000,0.000000,0.000000,,,,,,,,,,,,,,,,,,,,,,,,,,,,,,,,,
1680429014.351459,0.000000,0.000000,0.000000,10.825142,-3.758798,11.459156,-0.065603,-0.188934,0.000000,0.000000,0.000000,0.000000,0.000000,0.000000,0.000000,0.000000,1.905000,0.000000,0.000000,0.000000,,,,,,,,,,,,,,,,,,,,,,,,,,,,,,,,,
1680429014.354253,0.000000,0.000000,0.000000,10.806212,-3.812877,11.459156,-0.066547,-0.188604,0.000000,0.000000,0.000000,0.000000,0.000000,0.000000,0.000000,0.000000,1.910000,0.000000,0.000000,0.000000,,,,,,,,,,,,,,,,,,,,,,,,,,,,,,,,,
1680429014.361106,0.000000,0.000000,0.000000,10.787013,-3.866860,11.459156,-0.067489,-0.188269,0.000000,0.000000,0.000000,0.000000,0.000000,0.000000,0.000000,0.000000,1.915000,0.000000,0.000000,0.000000,,,,,,,,,,,,,,,,,,,,,,,,,,,,,,,,,
1680429014.361366,,,,,,,,,,,,,,,,,,,,,1.562118,-0.020725,0.647302,0.000000,0.000000,0.000000,0.000000,0.000000,0.000000,61014.000000,1680429014.352145,0.105645,-0.480743,9.110119,0.000000,0.000000,0.000000,0.000000,0.000000,0.000000,1.703214,0.719919,-0.999495,-0.005871,-0.015030,3.149181,-0.027381,1.000000,0.000000,0.000000,1.000000,0.000000,1.000000
1680429014.364398,0.000000,0.000000,0.000000,10.767544,-3.920746,11.459156,-0.068430,-0.187929,0.000000,0.000000,0.000000,0.000000,0.000000,0.000000,0.000000,0.000000,1.920000,0.000000,0.000000,0.000000,,,,,,,,,,,,,,,,,,,,,,,,,,,,,,,,,
1680429014.369600,0.000000,0.000000,0.000000,10.747806,-3.974535,11.459156,-0.069369,-0.187585,0.000000,0.000000,0.000000,0.000000,0.000000,0.000000,0.000000,0.000000,1.925000,0.000000,0.000000,0.000000,,,,,,,,,,,,,,,,,,,,,,,,,,,,,,,,,
1680429014.374506,0.000000,0.000000,0.000000,10.727799,-4.028224,11.459156,-0.070306,-0.187235,0.000000,0.000000,0.000000,0.000000,0.000000,0.000000,0.000000,0.000000,1.930000,0.000000,0.000000,0.000000,,,,,,,,,,,,,,,,,,,,,,,,,,,,,,,,,
1680429014.380255,0.000000,0.000000,0.000000,10.707524,-4.081812,11.459156,-0.071241,-0.186882,0.000000,0.000000,0.000000,0.000000,0.000000,0.000000,0.000000,0.000000,1.935000,0.000000,0.000000,0.000000,,,,,,,,,,,,,,,,,,,,,,,,,,,,,,,,,
1680429014.381080,,,,,,,,,,,,,,,,,,,,,1.682339,-0.141560,0.702511,0.000000,0.000000,0.000000,0.000000,0.000000,0.000000,61015.000000,1680429014.377145,2.512947,-5.625416,9.240067,0.000000,0.000000,0.000000,0.000000,0.000000,0.000000,1.530445,2.989920,-0.998941,-0.025592,-0.014277,4.106505,-0.035465,1.000000,0.000000,0.000000,1.000000,0.000000,1.000000
1680429014.384513,0.000000,0.000000,0.000000,10.686981,-4.135299,11.459156,-0.072175,-0.186523,0.000000,0.000000,0.000000,0.000000,0.000000,0.000000,0.000000,0.000000,1.940000,0.000000,0.000000,0.000000,,,,,,,,,,,,,,,,,,,,,,,,,,,,,,,,,
1680429014.389913,0.000000,0.000000,0.000000,10.666171,-4.188682,11.459156,-0.073106,-0.186160,0.000000,0.000000,0.000000,0.000000,0.000000,0.000000,0.000000,0.000000,1.945000,0.000000,0.000000,0.000000,,,,,,,,,,,,,,,,,,,,,,,,,,,,,,,,,
1680429014.395539,0.000000,0.000000,0.000000,10.645094,-4.241960,11.459156,-0.074036,-0.185792,0.000000,0.000000,0.000000,0.000000,0.000000,0.000000,0.000000,0.000000,1.950000,0.000000,0.000000,0.000000,,,,,,,,,,,,,,,,,,,,,,,,,,,,,,,,,
1680429014.400532,,,,,,,,,,,,,,,,,,,,,1.750646,-0.457471,0.739423,0.000000,0.000000,0.000000,0.000000,0.000000,0.000000,61016.000000,1680429014.392146,-8.788532,5.620242,10.068801,0.000000,0.000000,0.000000,0.000000,0.000000,0.000000,1.244331,4.509734,-0.998349,-0.038866,-0.012450,4.686826,-0.040428,1.000000,0.000000,0.000000,1.000000,0.000000,1.000000
1680429014.401367,0.000000,0.000000,0.000000,10.623751,-4.295132,11.459156,-0.074964,-0.185419,0.000000,0.000000,0.000000,0.000000,0.000000,0.000000,0.000000,0.000000,1.955000,0.000000,0.000000,0.000000,,,,,,,,,,,,,,,,,,,,,,,,,,,,,,,,,
1680429014.404600,0.000000,0.000000,0.000000,10.602143,-4.348197,11.459156,-0.075890,-0.185042,0.000000,0.000000,0.000000,0.000000,0.000000,0.000000,0.000000,0.000000,1.960000,0.000000,0.000000,0.000000,,,,,,,,,,,,,,,,,,,,,,,,,,,,,,,,,
1680429014.410426,0.000000,0.000000,0.000000,10.580270,-4.401153,11.459156,-0.076815,-0.184661,0.000000,0.000000,0.000000,0.000000,0.000000,0.000000,0.000000,0.000000,1.965000,0.000000,0.000000,0.000000,,,,,,,,,,,,,,,,,,,,,,,,,,,,,,,,,
1680429014.414304,0.000000,0.000000,0.000000,10.558132,-4.453999,11.459156,-0.077737,-0.184274,0.000000,0.000000,0.000000,0.000000,0.000000,0.000000,0.000000,0.000000,1.970000,0.000000,0.000000,0.000000,,,,,,,,,,,,,,,,,,,,,,,,,,,,,,,,,
1680429014.418280,,,,,,,,,,,,,,,,,,,,,1.727914,-0.457976,0.746107,0.000000,0.000000,0.000000,0.000000,0.000000,0.000000,61017.000000,1680429014.412146,-8.747072,2.160825,10.189622,0.000000,0.000000,0.000000,0.000000,0.000000,0.000000,0.736493,6.585952,-0.997198,-0.057067,-0.009162,5.494881,-0.047485,1.000000,0.000000,0.000000,1.000000,0.000000,1.000000
1680429014.419950,0.000000,0.000000,0.000000,10.535730,-4.506734,11.459156,-0.078657,-0.183883,0.000000,0.000000,0.000000,0.000000,0.000000,0.000000,0.000000,0.000000,1.975000,0.000000,0.000000,0.000000,,,,,,,,,,,,,,,,,,,,,,,,,,,,,,,,,
1680429014.424922,0.000000,0.000000,0.000000,10.513065,-4.559356,11.459156,-0.079576,-0.183488,0.000000,0.000000,0.000000,0.000000,0.000000,0.000000,0.000000,0.000000,1.980000,0.000000,0.000000,0.000000,,,,,,,,,,,,,,,,,,,,,,,,,,,,,,,,,
1680429014.430101,0.000000,0.000000,0.000000,10.490136,-4.611864,11.459156,-0.080492,-0.183087,0.000000,0.000000,0.000000,0.000000,0.000000,0.000000,0.000000,0.000000,1.985000,0.000000,0.000000,0.000000,,,,,,,,,,,,,,,,,,,,,,,,,,,,,,,,,
1680429014.434470,0.000000,0.000000,0.000000,10.466946,-4.664257,11.459156,-0.081407,-0.182683,0.000000,0.000000,0.000000,0.000000,0.000000,0.000000,0.000000,0.000000,1.990000,0.000000,0.000000,0.000000,,,,,,,,,,,,,,,,,,,,,,,,,,,,,,,,,
1680429014.439548,,,,,,,,,,,,,,,,,,,,,1.769046,-0.382094,0.743465,0.000000,0.000000,0.000000,0.000000,0.000000,0.000000,61018.000000,1680429014.437146,-0.874394,3.352851,12.435414,0.000000,0.000000,0.000000,0.000000,0.000000,0.000000,0.058045,9.116424,-0.995248,-0.079317,-0.004993,6.475809,-0.056263,1.000000,0.000000,0.000000,1.000000,0.000000,1.000000
1680429014.440073,0.000000,0.000000,0.000000,10.443494,-4.716533,11.459156,-0.082319,-0.182273,0.000000,0.000000,0.000000,0.000000,0.000000,0.000000,0.000000,0.000000,1.995000,0.000000,0.000000,0.000000,,,,,,,,,,,,,,,,,,,,,,,,,,,,,,,,,
1680429014.445509,0.000000,0.000000,0.000000,10.419781,-4.768691,11.459156,-0.083229,-0.181859,0.000000,0.000000,0.000000,0.000000,0.000000,0.000000,0.000000,0.000000,2.000000,0.000000,0.000000,0.000000,,,,,,,,,,,,,,,,,,,,,,,,,,,,,,,,,
1680429014.449927,0.000000,0.000000,0.000000,10.395807,-4.820731,11.459156,-0.084138,-0.181441,0.000000,0.000000,0.000000,0.000000,0.000000,0.000000,0.000000,0.000000,2.005000,0.000000,0.000000,0.000000,,,,,,,,,,,,,,,,,,,,,,,,,,,,,,,,,
